[{"name": "Alaska", "fillKey": "Hydro", "radius": 0.22665721715076206, "GENERATION (Megawatthours)": 1493024.0, "latitude": 63.588753, "longitude": -154.493062}, {"name": "Alabama", "fillKey": "Hydro", "radius": 1.7314353416712296, "GENERATION (Megawatthours)": 11405216.0, "latitude": 32.318231, "longitude": -86.902298}, {"name": "Arkansas", "fillKey": "Hydro", "radius": 0.6276919476437228, "GENERATION (Megawatthours)": 4134698.0, "latitude": 35.20105, "longitude": -91.831833}, {"name": "Arizona", "fillKey": "Hydro", "radius": 0.9419010529781551, "GENERATION (Megawatthours)": 6204439.0, "latitude": 34.048928, "longitude": -111.093731}, {"name": "California", "fillKey": "Hydro", "radius": 5.820615735022813, "GENERATION (Megawatthours)": 38341241.0, "latitude": 36.778261, "longitude": -119.417932}, {"name": "Colorado", "fillKey": "Hydro", "radius": 0.2729167105652992, "GENERATION (Megawatthours)": 1797742.0, "latitude": 39.550051, "longitude": -105.782067}, {"name": "Connecticut", "fillKey": "Hydro", "radius": 0.06496243623110054, "GENERATION (Megawatthours)": 427917.0, "latitude": 41.603221, "longitude": -73.087749}, {"name": "Florida", "fillKey": "Hydro", "radius": 0.031862361254766325, "GENERATION (Megawatthours)": 209882.0, "latitude": 27.664827, "longitude": -81.515754}, {"name": "Georgia", "fillKey": "Hydro", "radius": 0.5978025199748139, "GENERATION (Megawatthours)": 3937812.0, "latitude": 32.157435, "longitude": -82.907123}, {"name": "Hawaii", "fillKey": "Hydro", "radius": 0.0053768360837104364, "GENERATION (Megawatthours)": 35418.0, "latitude": 19.898682, "longitude": -155.665857}, {"name": "Iowa", "fillKey": "Hydro", "radius": 0.12088210838285453, "GENERATION (Megawatthours)": 796268.0, "latitude": 41.878003, "longitude": -93.097702}, {"name": "Idaho", "fillKey": "Hydro", "radius": 1.5686970130854259, "GENERATION (Megawatthours)": 10333235.0, "latitude": 44.068202, "longitude": -114.742041}, {"name": "Illinois", "fillKey": "Hydro", "radius": 0.01862658196755705, "GENERATION (Megawatthours)": 122696.0, "latitude": 40.633125, "longitude": -89.398528}, {"name": "Indiana", "fillKey": "Hydro", "radius": 0.038860992467571534, "GENERATION (Megawatthours)": 255983.0, "latitude": 40.551217, "longitude": -85.602364}, {"name": "Kansas", "fillKey": "Hydro", "radius": 0.0031080231843075203, "GENERATION (Megawatthours)": 20473.0, "latitude": 39.011902, "longitude": -98.484246}, {"name": "Kentucky", "fillKey": "Hydro", "radius": 0.6423939159561869, "GENERATION (Megawatthours)": 4231542.0, "latitude": 37.839333, "longitude": -84.270018}, {"name": "Louisiana", "fillKey": "Hydro", "radius": 0.20732258945802498, "GENERATION (Megawatthours)": 1365664.0, "latitude": 31.244823, "longitude": -92.145024}, {"name": "Massachusetts", "fillKey": "Hydro", "radius": 0.14726409856579448, "GENERATION (Megawatthours)": 970050.0, "latitude": 42.407211, "longitude": -71.382437}, {"name": "Maryland", "fillKey": "Hydro", "radius": 0.33216984498838736, "GENERATION (Megawatthours)": 2188051.0, "latitude": 39.045755, "longitude": -76.641271}, {"name": "Maine", "fillKey": "Hydro", "radius": 0.5141424543063056, "GENERATION (Megawatthours)": 3386731.0, "latitude": 45.253783, "longitude": -69.445469}, {"name": "Michigan", "fillKey": "Hydro", "radius": 0.24899405587719547, "GENERATION (Megawatthours)": 1640160.0, "latitude": 44.314844, "longitude": -85.602364}, {"name": "Minnesota", "fillKey": "Hydro", "radius": 0.1456609761691605, "GENERATION (Megawatthours)": 959490.0, "latitude": 46.729553, "longitude": -94.6859}, {"name": "Missouri", "fillKey": "Hydro", "radius": 0.3364125023386459, "GENERATION (Megawatthours)": 2215998.0, "latitude": 37.964253, "longitude": -91.831833}, {"name": "Montana", "fillKey": "Hydro", "radius": 1.5187949705435368, "GENERATION (Megawatthours)": 10004523.0, "latitude": 46.879682, "longitude": -110.362566}, {"name": "North Carolina", "fillKey": "Hydro", "radius": 0.93692332757444, "GENERATION (Megawatthours)": 6171650.0, "latitude": 35.759573, "longitude": -79.0193}, {"name": "North Dakota", "fillKey": "Hydro", "radius": 0.4826509669165938, "GENERATION (Megawatthours)": 3179292.0, "latitude": 47.551493, "longitude": -101.002012}, {"name": "Nebraska", "fillKey": "Hydro", "radius": 0.20346477256945847, "GENERATION (Megawatthours)": 1340252.0, "latitude": 41.492537, "longitude": -99.901813}, {"name": "New Hampshire", "fillKey": "Hydro", "radius": 0.2219539657331373, "GENERATION (Megawatthours)": 1462043.0, "latitude": 43.193852, "longitude": -71.572395}, {"name": "New Jersey", "fillKey": "Hydro", "radius": 0.004018129128229935, "GENERATION (Megawatthours)": 26468.0, "latitude": 40.058324, "longitude": -74.405661}, {"name": "New Mexico", "fillKey": "Hydro", "radius": 0.02401343756624645, "GENERATION (Megawatthours)": 158180.0, "latitude": 34.97273, "longitude": -105.032363}, {"name": "Nevada", "fillKey": "Hydro", "radius": 0.34036854083617285, "GENERATION (Megawatthours)": 2242057.0, "latitude": 38.80261, "longitude": -116.419389}, {"name": "New York", "fillKey": "Hydro", "radius": 4.638576662922202, "GENERATION (Megawatthours)": 30554978.0, "latitude": 43.299428, "longitude": -74.217933}, {"name": "Ohio", "fillKey": "Hydro", "radius": 0.06112374750749384, "GENERATION (Megawatthours)": 402631.0, "latitude": 40.417287, "longitude": -82.907123}, {"name": "Oklahoma", "fillKey": "Hydro", "radius": 0.5925527495583367, "GENERATION (Megawatthours)": 3903231.0, "latitude": 35.007752, "longitude": -97.092877}, {"name": "Oregon", "fillKey": "Hydro", "radius": 4.60320853410063, "GENERATION (Megawatthours)": 30322003.0, "latitude": 43.804133, "longitude": -120.554201}, {"name": "Pennsylvania", "fillKey": "Hydro", "radius": 0.5318120207825386, "GENERATION (Megawatthours)": 3503123.0, "latitude": 41.203322, "longitude": -77.194525}, {"name": "Rhode Island", "fillKey": "Hydro", "radius": 0.0005525914321730755, "GENERATION (Megawatthours)": 3640.0, "latitude": 41.580095, "longitude": -71.477429}, {"name": "South Carolina", "fillKey": "Hydro", "radius": 0.4514454911362816, "GENERATION (Megawatthours)": 2973737.0, "latitude": 33.836081, "longitude": -81.163725}, {"name": "South Dakota", "fillKey": "Hydro", "radius": 1.2016062739895272, "GENERATION (Megawatthours)": 7915155.0, "latitude": 43.969515, "longitude": -99.901813}, {"name": "Tennessee", "fillKey": "Hydro", "radius": 1.5378170197310967, "GENERATION (Megawatthours)": 10129824.0, "latitude": 35.517491, "longitude": -86.580447}, {"name": "Texas", "fillKey": "Hydro", "radius": 0.22376795337682853, "GENERATION (Megawatthours)": 1473992.0, "latitude": 31.968599, "longitude": -99.901813}, {"name": "Utah", "fillKey": "Hydro", "radius": 0.13285132989022316, "GENERATION (Megawatthours)": 875111.0, "latitude": 39.32098, "longitude": -111.093731}, {"name": "Virginia", "fillKey": "Hydro", "radius": 0.2306223642982699, "GENERATION (Megawatthours)": 1519143.0, "latitude": 37.431573, "longitude": -78.656894}, {"name": "Vermont", "fillKey": "Hydro", "radius": 0.2029736645246563, "GENERATION (Megawatthours)": 1337017.0, "latitude": 44.558803, "longitude": -72.577841}, {"name": "Washington", "fillKey": "Hydro", "radius": 10.022296608855685, "GENERATION (Megawatthours)": 66018323.0, "latitude": 47.751074, "longitude": -120.740139}, {"name": "Wisconsin", "fillKey": "Hydro", "radius": 0.3835652506946408, "GENERATION (Megawatthours)": 2526600.0, "latitude": 43.78444, "longitude": -88.787868}, {"name": "West Virginia", "fillKey": "Hydro", "radius": 0.173506422782361, "GENERATION (Megawatthours)": 1142912.0, "latitude": 38.597626, "longitude": -80.454903}, {"name": "Wyoming", "fillKey": "Hydro", "radius": 0.15066116957616177, "GENERATION (Megawatthours)": 992427.0, "latitude": 43.075968, "longitude": -107.290284}]